[
    {
        "name": "Tarjan",
        "street_name": "Yeouido-daero",
        "district": "Yeouido",
        "latitude": 37.5215,
        "longitude": 126.9243
    },
    {
        "name": "Relative_1",
        "street_name": "Gangnam-daero",
        "district": "Gangnam-gu",
        "latitude": 37.4979,
        "longitude": 127.0276
    },
    {
        "name": "Relative_2",
        "street_name": "Yangjae-daero",
        "district": "Seocho-gu",
        "latitude": 37.4833,
        "longitude": 127.0322
    },
    {
        "name": "Relative_3",
        "street_name": "Sinsa-daero",
        "district": "Gangnam-gu",
        "latitude": 37.5172,
        "longitude": 127.0286
    },
    {
        "name": "Relative_4",
        "street_name": "Apgujeong-ro",
        "district": "Gangnam-gu",
        "latitude": 37.5219,
        "longitude": 127.0411
    },
    {
        "name": "Relative_5",
        "street_name": "Hannam-daero",
        "district": "Yongsan-gu",
        "latitude": 37.5340,
        "longitude": 127.0026
    },
    {
        "name": "Relative_6",
        "street_name": "Seongsu-daero",
        "district": "Seongdong-gu",
        "latitude": 37.5443,
        "longitude": 127.0557
    },
    {
        "name": "Relative_7",
        "street_name": "Cheongdam-ro",
        "district": "Gangnam-gu",
        "latitude": 37.5172,
        "longitude": 127.0391
    },
    {
        "name": "Relative_8",
        "street_name": "Bukhan-ro",
        "district": "Jongno-gu",
        "latitude": 37.5800,
        "longitude": 126.9844
    },
    {
        "name": "Relative_9",
        "street_name": "Samseong-ro",
        "district": "Gangnam-gu",
        "latitude": 37.5110,
        "longitude": 127.0590
    },
    {
        "name": "Relative_10",
        "street_name": "Jamsil-ro",
        "district": "Songpa-gu",
        "latitude": 37.5133,
        "longitude": 127.1028
    }
]
